[
  {
    "station": "Houhora",
    "lat": -34.791007,
    "lon": 173.10258
  },
  {
    "station": "Auckland",
    "lat": -36.846988,
    "lon": 174.788822
  },
  {
    "station": "Maraetai",
    "lat": -36.881155,
    "lon": 175.041697
  },
  {
    "station": "Titirangi",
    "lat": -36.949373,
    "lon": 174.665464
  },
  {
    "station": "Papakura",
    "lat": -37.054025,
    "lon": 174.932257
  },
  {
    "station": "Howick",
    "lat": -36.893162,
    "lon": 174.942294
  },
  {
    "station": "North Shore",
    "lat": -36.713279,
    "lon": 174.749561
  },
  {
    "station": "Hibiscus",
    "lat": -36.625238,
    "lon": 174.74023
  },
  {
    "station": "Thames",
    "lat": -37.150474,
    "lon": 175.559271
  },
  {
    "station": "Whitianga",
    "lat": -36.838552,
    "lon": 175.703441
  },
  {
    "station": "Whangamata",
    "lat": -37.197263,
    "lon": 175.867759
  },
  {
    "station": "Bay of Islands",
    "lat": -35.261529,
    "lon": 173.918949
  },
  {
    "station": "Raglan",
    "lat": -37.794255,
    "lon": 174.880066
  },
  {
    "station": "Tauranga",
    "lat": -37.661885,
    "lon": 176.168559
  },
  {
    "station": "Gisborne",
    "lat": -38.672195,
    "lon": 178.02962
  },
  {
    "station": "Hawke's Bay",
    "lat": -39.481848,
    "lon": 176.890242
  },
  {
    "station": "Taranaki",
    "lat": -39.058648,
    "lon": 174.050657
  },
  {
    "station": "Wanganui",
    "lat": -39.945296,
    "lon": 174.998623
  },
  {
    "station": "Kapiti",
    "lat": -40.890936,
    "lon": 174.980649
  },
  {
    "station": "Wellington",
    "lat": -41.310807,
    "lon": 174.79821
  },
  {
    "station": "Nelson",
    "lat": -41.263687,
    "lon": 173.268788
  },
  {
    "station": "Kaikoura",
    "lat": -42.423575,
    "lon": 173.681266
  },
  {
    "station": "West Coast",
    "lat": -42.452962,
    "lon": 171.196852
  },
  {
    "station": "Canterbury North",
    "lat": -43.380671,
    "lon": 172.660359
  },
  {
    "station": "Canterbury",
    "lat": -43.608305,
    "lon": 172.70974
  },
  {
    "station": "Canterbury",
    "lat": -43.608305,
    "lon": 172.70974
  },
  {
    "station": "Dunedin",
    "lat": -45.840304,
    "lon": 170.650801
  },
  {
    "station": "Bluff",
    "lat": -46.593328,
    "lon": 168.325281
  },
  {
    "station": "Sumner Lifeboat",
    "lat": -43.571417,
    "lon": 172.771572
  },
  {
    "station": "Queenstown",
    "lat": -45.018674,
    "lon": 168.714729
  },
  {
    "station": "Lake Brunner",
    "lat": -42.572156,
    "lon": 171.482991
  },
  {
    "station": "Marlbolrough",
    "lat": -41.288673,
    "lon": 174.010788
  },
  {
    "station": "Auckland Air Patrol",
    "lat": -37.034329,
    "lon": 174.973737
  },
  {
    "station": "Hokianga",
    "lat": -35.517103,
    "lon": 173.389997
  },
  {
    "station": "Kaipara",
    "lat": -36.6772,
    "lon": 174.444667
  },
  {
    "station": "Lake Taupo",
    "lat": -38.686905,
    "lon": 176.064249
  },
  {
    "station": "Lake Taupo",
    "lat": -38.686905,
    "lon": 176.064249
  },
  {
    "station": "Maketu",
    "lat": -37.754505,
    "lon": 176.456314
  },
  {
    "station": "Mana",
    "lat": -41.099297,
    "lon": 174.866871
  },
  {
    "station": "Manawatu",
    "lat": -40.471989,
    "lon": 175.237589
  },
  {
    "station": "Opotiki",
    "lat": -38.001545,
    "lon": 177.282367
  },
  {
    "station": "Rotorua Lakes",
    "lat": -38.129323,
    "lon": 176.250252
  },
  {
    "station": "Turangi",
    "lat": -38.95366,
    "lon": 175.747418
  },
  {
    "station": "Tutukaka",
    "lat": -35.610129,
    "lon": 174.528925
  },
  {
    "station": "Waihau Bay",
    "lat": -37.619774,
    "lon": 177.903912
  },
  {
    "station": "Whakatene",
    "lat": -37.947574,
    "lon": 177.007945
  },
  {
    "station": "Whangarei",
    "lat": -35.750168,
    "lon": 174.347468
  },
  {
    "station": "Whangaroa",
    "lat": -35.049471,
    "lon": 173.743926
  },
  {
    "station": "Whangaruru",
    "lat": -35.350885,
    "lon": 174.321808
  },
  {
    "station": "Waihi",
    "lat": -37.428473,
    "lon": 175.957542
  }
]
